$GPGGA,161125.818,6724.449,N,02338.555,E,1,12,1.0,0.0,M,0.0,M,,*6E
$GPGSA,A,3,01,02,03,04,05,06,07,08,09,10,11,12,1.0,1.0,1.0*30
$GPRMC,161125.818,A,6724.449,N,02338.555,E,1348998.0,156.9,010523,000.0,W*72
$GPGGA,161126.818,6116.214,N,02616.758,E,1,12,1.0,0.0,M,0.0,M,,*62
$GPGSA,A,3,01,02,03,04,05,06,07,08,09,10,11,12,1.0,1.0,1.0*30
$GPRMC,161126.818,A,6116.214,N,02616.758,E,1936890.6,185.6,010523,000.0,W*73
$GPGGA,161127.818,5219.315,N,02524.023,E,1,12,1.0,0.0,M,0.0,M,,*65
$GPGSA,A,3,01,02,03,04,05,06,07,08,09,10,11,12,1.0,1.0,1.0*30
$GPRMC,161127.818,A,5219.315,N,02524.023,E,2873511.1,179.6,010523,000.0,W*77
$GPGGA,161128.818,3901.663,N,02529.297,E,1,12,1.0,0.0,M,0.0,M,,*6A
$GPGSA,A,3,01,02,03,04,05,06,07,08,09,10,11,12,1.0,1.0,1.0*30
$GPRMC,161128.818,A,3901.663,N,02529.297,E,2183287.9,257.6,010523,000.0,W*71
$GPGGA,161129.818,3618.908,N,01311.016,E,1,12,1.0,0.0,M,0.0,M,,*6B
$GPGSA,A,3,01,02,03,04,05,06,07,08,09,10,11,12,1.0,1.0,1.0*30
$GPRMC,161129.818,A,3618.908,N,01311.016,E,3496576.7,268.6,010523,000.0,W*7B
$GPGGA,161130.818,3549.069,N,00651.328,W,1,12,1.0,0.0,M,0.0,M,,*76
$GPGSA,A,3,01,02,03,04,05,06,07,08,09,10,11,12,1.0,1.0,1.0*30
$GPRMC,161130.818,A,3549.069,N,00651.328,W,2073673.3,350.6,010523,000.0,W*60
$GPGGA,161131.818,4520.202,N,00826.250,W,1,12,1.0,0.0,M,0.0,M,,*70
$GPGSA,A,3,01,02,03,04,05,06,07,08,09,10,11,12,1.0,1.0,1.0*30
$GPRMC,161131.818,A,4520.202,N,00826.250,W,2531580.7,351.0,010523,000.0,W*69
$GPGGA,161132.818,5659.573,N,01016.992,W,1,12,1.0,0.0,M,0.0,M,,*71
$GPGSA,A,3,01,02,03,04,05,06,07,08,09,10,11,12,1.0,1.0,1.0*30
$GPRMC,161132.818,A,5659.573,N,01016.992,W,1514965.3,009.9,010523,000.0,W*68
$GPGGA,161133.818,6358.558,N,00903.164,W,1,12,1.0,0.0,M,0.0,M,,*73
$GPGSA,A,3,01,02,03,04,05,06,07,08,09,10,11,12,1.0,1.0,1.0*30
$GPRMC,161133.818,A,6358.558,N,00903.164,W,1542047.2,007.0,010523,000.0,W*66
$GPGGA,161134.818,7106.153,N,00810.430,W,1,12,1.0,0.0,M,0.0,M,,*74
$GPGSA,A,3,01,02,03,04,05,06,07,08,09,10,11,12,1.0,1.0,1.0*30
$GPRMC,161134.818,A,7106.153,N,00810.430,W,837811.5,085.8,010523,000.0,W*51
$GPGGA,161135.818,7157.923,N,00346.758,E,1,12,1.0,0.0,M,0.0,M,,*69
$GPGSA,A,3,01,02,03,04,05,06,07,08,09,10,11,12,1.0,1.0,1.0*30
$GPRMC,161135.818,A,7157.923,N,00346.758,E,951276.3,090.0,010523,000.0,W*4C
$GPGGA,161136.818,7156.289,N,01801.055,E,1,12,1.0,0.0,M,0.0,M,,*63
$GPGSA,A,3,01,02,03,04,05,06,07,08,09,10,11,12,1.0,1.0,1.0*30
$GPRMC,161136.818,A,7156.289,N,01801.055,E,617393.8,198.7,010523,000.0,W*44
$GPGGA,161137.818,6905.996,N,01703.047,E,1,12,1.0,0.0,M,0.0,M,,*66
$GPGSA,A,3,01,02,03,04,05,06,07,08,09,10,11,12,1.0,1.0,1.0*30
$GPRMC,161137.818,A,6905.996,N,01703.047,E,1385613.9,270.7,010523,000.0,W*77
$GPGGA,161138.818,6917.235,N,00103.281,W,1,12,1.0,0.0,M,0.0,M,,*75
$GPGSA,A,3,01,02,03,04,05,06,07,08,09,10,11,12,1.0,1.0,1.0*30
$GPRMC,161138.818,A,6917.235,N,00103.281,W,1859319.8,097.2,010523,000.0,W*6E
$GPGGA,161139.818,6630.796,N,02044.531,E,1,12,1.0,0.0,M,0.0,M,,*6C
$GPGSA,A,3,01,02,03,04,05,06,07,08,09,10,11,12,1.0,1.0,1.0*30
$GPRMC,161139.818,A,6630.796,N,02044.531,E,2098190.5,264.3,010523,000.0,W*70
$GPGGA,161140.818,6412.383,N,00201.289,W,1,12,1.0,0.0,M,0.0,M,,*77
$GPGSA,A,3,01,02,03,04,05,06,07,08,09,10,11,12,1.0,1.0,1.0*30
$GPRMC,161140.818,A,6412.383,N,00201.289,W,2248089.5,096.3,010523,000.0,W*62
$GPGGA,161141.818,6141.392,N,02018.164,E,1,12,1.0,0.0,M,0.0,M,,*6F
$GPGSA,A,3,01,02,03,04,05,06,07,08,09,10,11,12,1.0,1.0,1.0*30
$GPRMC,161141.818,A,6141.392,N,02018.164,E,2958701.3,256.8,010523,000.0,W*74
$GPGGA,161142.818,5558.428,N,00357.305,W,1,12,1.0,0.0,M,0.0,M,,*78
$GPGSA,A,3,01,02,03,04,05,06,07,08,09,10,11,12,1.0,1.0,1.0*30
$GPRMC,161142.818,A,5558.428,N,00357.305,W,3234827.0,096.9,010523,000.0,W*64
$GPGGA,161143.818,5251.352,N,02121.445,E,1,12,1.0,0.0,M,0.0,M,,*6D
$GPGSA,A,3,01,02,03,04,05,06,07,08,09,10,11,12,1.0,1.0,1.0*30
$GPRMC,161143.818,A,5251.352,N,02121.445,E,3513587.1,256.0,010523,000.0,W*72
$GPGGA,161144.818,4655.215,N,00217.109,W,1,12,1.0,0.0,M,0.0,M,,*72
$GPGSA,A,3,01,02,03,04,05,06,07,08,09,10,11,12,1.0,1.0,1.0*30
$GPRMC,161144.818,A,4655.215,N,00217.109,W,3386600.3,093.1,010523,000.0,W*63
$GPGGA,161145.818,4538.686,N,02023.438,E,1,12,1.0,0.0,M,0.0,M,,*67
$GPGSA,A,3,01,02,03,04,05,06,07,08,09,10,11,12,1.0,1.0,1.0*30
$GPRMC,161145.818,A,4538.686,N,02023.438,E,1109382.7,182.0,010523,000.0,W*7A
$GPGGA,161146.818,4030.828,N,02012.891,E,1,12,1.0,0.0,M,0.0,M,,*6E
$GPGSA,A,3,01,02,03,04,05,06,07,08,09,10,11,12,1.0,1.0,1.0*30
$GPRMC,161146.818,A,4030.828,N,02012.891,E,3806460.2,263.2,010523,000.0,W*77
$GPGGA,161147.818,3747.285,N,00217.109,W,1,12,1.0,0.0,M,0.0,M,,*7D
$GPGSA,A,3,01,02,03,04,05,06,07,08,09,10,11,12,1.0,1.0,1.0*30
$GPRMC,161147.818,A,3747.285,N,00217.109,W,4550498.2,042.6,010523,000.0,W*6F
$GPGGA,161148.818,5540.655,N,01414.297,E,1,12,1.0,0.0,M,0.0,M,,*6A
$GPGSA,A,3,01,02,03,04,05,06,07,08,09,10,11,12,1.0,1.0,1.0*30
$GPRMC,161148.818,A,5540.655,N,01414.297,E,2895247.3,302.9,010523,000.0,W*77
$GPGGA,161149.818,6626.586,N,00232.930,W,1,12,1.0,0.0,M,0.0,M,,*71
$GPGSA,A,3,01,02,03,04,05,06,07,08,09,10,11,12,1.0,1.0,1.0*30
$GPRMC,161149.818,A,6626.586,N,00232.930,W,1352771.1,071.8,010523,000.0,W*6B
$GPGGA,161150.818,7036.757,N,01016.992,E,1,12,1.0,0.0,M,0.0,M,,*6E
$GPGSA,A,3,01,02,03,04,05,06,07,08,09,10,11,12,1.0,1.0,1.0*30
$GPRMC,161150.818,A,7036.757,N,01016.992,E,950284.0,075.4,010523,000.0,W*4B
$GPGGA,161151.818,7325.705,N,02116.172,E,1,12,1.0,0.0,M,0.0,M,,*6D
$GPGSA,A,3,01,02,03,04,05,06,07,08,09,10,11,12,1.0,1.0,1.0*30
$GPRMC,161151.818,A,7325.705,N,02116.172,E,6689501.7,177.1,010523,000.0,W*7E
$GPGGA,161152.818,4229.298,N,02251.094,E,1,12,1.0,0.0,M,0.0,M,,*68
$GPGSA,A,3,01,02,03,04,05,06,07,08,09,10,11,12,1.0,1.0,1.0*30
$GPRMC,161152.818,A,4229.298,N,02251.094,E,5475829.9,304.8,010523,000.0,W*7F
$GPGGA,161153.818,6141.392,N,00500.586,W,1,12,1.0,0.0,M,0.0,M,,*78
$GPGSA,A,3,01,02,03,04,05,06,07,08,09,10,11,12,1.0,1.0,1.0*30
$GPRMC,161153.818,A,6141.392,N,00500.586,W,1858829.0,358.3,010523,000.0,W*63
$GPGGA,161154.818,7017.347,N,00516.406,W,1,12,1.0,0.0,M,0.0,M,,*7A
$GPGSA,A,3,01,02,03,04,05,06,07,08,09,10,11,12,1.0,1.0,1.0*30
$GPRMC,161154.818,A,7017.347,N,00516.406,W,3634202.6,122.9,010523,000.0,W*67
$GPGGA,161155.818,5618.992,N,01620.859,E,1,12,1.0,0.0,M,0.0,M,,*61
$GPGSA,A,3,01,02,03,04,05,06,07,08,09,10,11,12,1.0,1.0,1.0*30
$GPRMC,161155.818,A,5618.992,N,01620.859,E,285184.6,073.3,010523,000.0,W*43
$GPGGA,161156.818,5656.698,N,01827.422,E,1,12,1.0,0.0,M,0.0,M,,*64
$GPGSA,A,3,01,02,03,04,05,06,07,08,09,10,11,12,1.0,1.0,1.0*30
$GPRMC,161156.818,A,5656.698,N,01827.422,E,285184.6,073.3,010523,000.0,W*46
